{"Response":{"MetaInfo":{"Timestamp":"2015-08-08T22:02:58.491+0000"},"View":[{"_type":"SearchResultsViewType","ViewId":0,"Result":[{"Relevance":1.0,"MatchLevel":"city","MatchQuality":{"City":1.0},"Location":{"LocationId":"NT_pajwd4LZHt7vYt9r0-cSRD","LocationType":"area","DisplayPosition":{"Latitude":67.88254,"Longitude":12.98096},"NavigationPosition":[{"Latitude":67.88254,"Longitude":12.98096}],"MapView":{"TopLeft":{"Latitude":67.88469,"Longitude":12.9746},"BottomRight":{"Latitude":67.87583,"Longitude":12.98959}},"Address":{"Label":"Å, Nordland, Norge","Country":"NOR","State":"Nordland","County":"Moskenes","City":"Å","PostalCode":"8392","AdditionalData":[{"value":"Norge","key":"CountryName"},{"value":"Nordland","key":"StateName"},{"value":"Moskenes","key":"CountyName"}]}}},{"Relevance":1.0,"MatchLevel":"city","MatchQuality":{"City":1.0},"Location":{"LocationId":"NT_sS5YoPPlVqDBpctWS1V.zC","LocationType":"area","DisplayPosition":{"Latitude":68.7831,"Longitude":17.78538},"NavigationPosition":[{"Latitude":68.7831,"Longitude":17.78538}],"MapView":{"TopLeft":{"Latitude":68.7869,"Longitude":17.77864},"BottomRight":{"Latitude":68.77966,"Longitude":17.79321}},"Address":{"Label":"Å, Troms, Norge","Country":"NOR","State":"Troms","County":"Lavangen","City":"Å","PostalCode":"9357","AdditionalData":[{"value":"Norge","key":"CountryName"},{"value":"Troms","key":"StateName"},{"value":"Lavangen","key":"CountyName"}]}}},{"Relevance":1.0,"MatchLevel":"city","MatchQuality":{"City":1.0},"Location":{"LocationId":"NT_-hLuMHpuMjJRBGXM9T-RHB","LocationType":"area","DisplayPosition":{"Latitude":62.98512,"Longitude":9.74044},"NavigationPosition":[{"Latitude":62.98512,"Longitude":9.74044}],"MapView":{"TopLeft":{"Latitude":62.99175,"Longitude":9.73347},"BottomRight":{"Latitude":62.98278,"Longitude":9.76661}},"Address":{"Label":"Å, Sør-Trøndelag, Norge","Country":"NOR","State":"Sør-Trøndelag","County":"Meldal","City":"Å","PostalCode":"7335","AdditionalData":[{"value":"Norge","key":"CountryName"},{"value":"Sør-Trøndelag","key":"StateName"},{"value":"Meldal","key":"CountyName"}]}}},{"Relevance":1.0,"MatchLevel":"city","MatchQuality":{"City":1.0},"Location":{"LocationId":"NT_dDaY3zpJFkQbqQ5xvXuRqA","LocationType":"area","DisplayPosition":{"Latitude":68.83433,"Longitude":17.18501},"NavigationPosition":[{"Latitude":68.83433,"Longitude":17.18501}],"MapView":{"TopLeft":{"Latitude":68.83802,"Longitude":17.18202},"BottomRight":{"Latitude":68.83309,"Longitude":17.19264}},"Address":{"Label":"Å, Troms, Norge","Country":"NOR","State":"Troms","County":"Ibestad","City":"Å","PostalCode":"9454","AdditionalData":[{"value":"Norge","key":"CountryName"},{"value":"Troms","key":"StateName"},{"value":"Ibestad","key":"CountyName"}]}}},{"Relevance":1.0,"MatchLevel":"city","MatchQuality":{"City":1.0},"Location":{"LocationId":"NT_2NaSQO2TEZpqhnsIpiFhPC","LocationType":"area","DisplayPosition":{"Latitude":69.07999,"Longitude":17.00046},"NavigationPosition":[{"Latitude":69.07999,"Longitude":17.00046}],"MapView":{"TopLeft":{"Latitude":69.08589,"Longitude":16.98894},"BottomRight":{"Latitude":69.0769,"Longitude":17.01315}},"Address":{"Label":"Å, Troms, Norge","Country":"NOR","State":"Troms","County":"Tranøy","City":"Å","PostalCode":"9392","AdditionalData":[{"value":"Norge","key":"CountryName"},{"value":"Troms","key":"StateName"},{"value":"Tranøy","key":"CountyName"}]}}},{"Relevance":1.0,"MatchLevel":"city","MatchQuality":{"City":1.0},"Location":{"LocationId":"NT_Rj-vs.i1H7irTX1DZBaYlD","LocationType":"area","DisplayPosition":{"Latitude":61.73096,"Longitude":5.91828},"NavigationPosition":[{"Latitude":61.73096,"Longitude":5.91828}],"MapView":{"TopLeft":{"Latitude":61.73124,"Longitude":5.91801},"BottomRight":{"Latitude":61.72857,"Longitude":5.92237}},"Address":{"Label":"Å, Sogn og Fjordane, Norge","Country":"NOR","State":"Sogn og Fjordane","County":"Gloppen","City":"Å","PostalCode":"6829","AdditionalData":[{"value":"Norge","key":"CountryName"},{"value":"Sogn og Fjordane","key":"StateName"},{"value":"Gloppen","key":"CountyName"}]}}},{"Relevance":1.0,"MatchLevel":"city","MatchQuality":{"City":1.0},"Location":{"LocationId":"NT_em0.Pl1Do5IwYj59bdfRPB","LocationType":"area","DisplayPosition":{"Latitude":69.05367,"Longitude":15.88474},"NavigationPosition":[{"Latitude":69.05367,"Longitude":15.88474}],"MapView":{"TopLeft":{"Latitude":69.06045,"Longitude":15.86859},"BottomRight":{"Latitude":69.04689,"Longitude":15.89448}},"Address":{"Label":"Å, Nordland, Norge","Country":"NOR","State":"Nordland","County":"Andøy","City":"Å","PostalCode":"8485","AdditionalData":[{"value":"Norge","key":"CountryName"},{"value":"Nordland","key":"StateName"},{"value":"Andøy","key":"CountyName"}]}}}]}]}}